[
  { "city": "Dallas",          "country": "USA",    "code": "us", "stadium": "AT&T Stadium",           "capacity": 80000, "lat": 32.748, "lng": -97.094,  "image": "/stadiums/dallas.jpg" },
  { "city": "Los Ángeles",     "country": "USA",    "code": "us", "stadium": "SoFi Stadium",            "capacity": 70240, "lat": 33.953, "lng": -118.339, "image": "/stadiums/losangeles.jpg" },
  { "city": "Nueva York",      "country": "USA",    "code": "us", "stadium": "MetLife Stadium",         "capacity": 82500, "lat": 40.813, "lng": -74.074,  "image": "/stadiums/nuevayork.jpg" },
  { "city": "Miami",           "country": "USA",    "code": "us", "stadium": "Hard Rock Stadium",       "capacity": 65326, "lat": 25.958, "lng": -80.239,  "image": "/stadiums/miami.jpg" },
  { "city": "San Francisco",   "country": "USA",    "code": "us", "stadium": "Levi's Stadium",          "capacity": 68500, "lat": 37.403, "lng": -121.969, "image": "/stadiums/sanfrancisco.jpg" },
  { "city": "Seattle",         "country": "USA",    "code": "us", "stadium": "Lumen Field",             "capacity": 68740, "lat": 47.595, "lng": -122.332, "image": "/stadiums/seattle.jpg" },
  { "city": "Houston",         "country": "USA",    "code": "us", "stadium": "NRG Stadium",             "capacity": 72220, "lat": 29.685, "lng": -95.411,  "image": "/stadiums/houston.jpg" },
  { "city": "Atlanta",         "country": "USA",    "code": "us", "stadium": "Mercedes-Benz Stadium",   "capacity": 71000, "lat": 33.755, "lng": -84.401,  "image": "/stadiums/atlanta.jpg" },
  { "city": "Kansas City",     "country": "USA",    "code": "us", "stadium": "Arrowhead Stadium",       "capacity": 76416, "lat": 39.049, "lng": -94.484,  "image": "/stadiums/kansascity.jpg" },
  { "city": "Filadelfia",      "country": "USA",    "code": "us", "stadium": "Lincoln Financial Field", "capacity": 69796, "lat": 39.901, "lng": -75.167,  "image": "/stadiums/filadelfia.jpg" },
  { "city": "Boston",          "country": "USA",    "code": "us", "stadium": "Gillette Stadium",        "capacity": 65878, "lat": 42.091, "lng": -71.264,  "image": "/stadiums/boston.jpg" },
  { "city": "Toronto",         "country": "Canadá", "code": "ca", "stadium": "BMO Field",               "capacity": 30000, "lat": 43.633, "lng": -79.418,  "image": "/stadiums/toronto.jpg" },
  { "city": "Vancouver",       "country": "Canadá", "code": "ca", "stadium": "BC Place",                "capacity": 54500, "lat": 49.277, "lng": -123.112, "image": "/stadiums/vancouver.jpg" },
  { "city": "Guadalajara",     "country": "México", "code": "mx", "stadium": "Estadio Akron",           "capacity": 49850, "lat": 20.686, "lng": -103.467, "image": "/stadiums/guadalajara.jpg" },
  { "city": "Ciudad de México","country": "México", "code": "mx", "stadium": "Estadio Azteca",          "capacity": 87523, "lat": 19.303, "lng": -99.150,  "image": "/stadiums/ciudadmexico.jpg" },
  { "city": "Monterrey",       "country": "México", "code": "mx", "stadium": "Estadio BBVA",            "capacity": 53500, "lat": 25.669, "lng": -100.248, "image": "/stadiums/monterrey.jpg" }
]
